#AngryGPS 1.3.48.5
#Engine qcom;MPSS.DE.7.0-02170.5-PAKALA_GEN_PACK-1;
AccInfo:	1748319142197	:	68.4	Speed:	0.00
BatteryTemperature:	25.2
#location,041222,37.2459772,127.0486533,0.0,0.0,270525,network,68.4,0.0,0.0,8.041288,
AccInfo:	1748319142197	:	68.4	Speed:	10.78
BatteryTemperature:	25.2
#location,041222,37.2460919,127.0489604,2.9935074,65.751945,270525,fused,68.4,45.0,1.5,4.169992,
AccInfo:	1748319147193	:	45.6	Speed:	0.00
BatteryTemperature:	25.2
#location,041227,37.2459889,127.0486465,0.0,0.0,270525,network,45.6,0.0,0.0,3.5219047,
AccInfo:	1748319147193	:	57.0	Speed:	4.44
BatteryTemperature:	25.2
#location,041227,37.2460318,127.0487732,1.234614,64.000595,270525,fused,57.0,45.0,1.5,3.254724,
AccInfo:	1748319188991	:	164.4	Speed:	0.00
BatteryTemperature:	24.6
#location,041308,37.2459433,127.0485799,0.0,0.0,270525,network,164.4,0.0,0.0,93.60562,
AccInfo:	1748319188991	:	164.4	Speed:	0.00
BatteryTemperature:	24.6
#location,041308,37.2459433,127.0485799,0.0,0.0,270525,fused,164.4,45.0,1.5,5.855816,
$BDMSG,JAMMER_MSG,0/0/0/0/0,PASS*00
AccInfo:	1748319197863	:	59.68	Speed:	0.00
BatteryTemperature:	24.6
#location,041317,37.2464397,127.0486726,0.0,0.0,270525,network,59.68,0.0,0.0,8.587258,
AccInfo:	1748319197863	:	59.68	Speed:	1.44
BatteryTemperature:	24.6
#location,041317,37.2464147,127.0486679,0.39910838,8.455499,270525,fused,59.68,45.0,1.5,3.3759985,
$BDMSG,JAMMER_MSG,0/0/0/0/0,PASS*00
AccInfo:	1748319203637	:	42.547	Speed:	0.00
BatteryTemperature:	24.6
#location,041323,37.2468574,127.0503334,0.0,0.0,270525,network,42.547,0.0,0.0,13.695882,
AccInfo:	1748319203637	:	42.547	Speed:	84.28
BatteryTemperature:	24.6
#location,041323,37.2468407,127.0502678,23.411724,71.42014,270525,fused,42.547,45.0,1.5,3.3750827,
AccInfo:	1748319208377	:	34.594	Speed:	0.00
BatteryTemperature:	24.6
#location,041328,37.2472377,127.049766,0.0,0.0,270525,network,34.594,0.0,0.0,66.156006,
AccInfo:	1748319208377	:	38.57	Speed:	34.81
BatteryTemperature:	24.6
#location,041328,37.2472341,127.0498436,9.669066,338.07867,270525,fused,38.57,45.0,1.5,3.406801,
$BDMSG,JAMMER_MSG,0/0/0/0/0,PASS*00
AccInfo:	1748319213887	:	90.595	Speed:	0.00
BatteryTemperature:	24.6
#location,041333,37.2461571,127.0490803,0.0,0.0,270525,network,90.595,0.0,0.0,100.0,
AccInfo:	1748319213887	:	90.595	Speed:	54.30
BatteryTemperature:	24.6
#location,041333,37.2465223,127.0492095,15.082291,218.78528,270525,fused,90.595,45.0,1.5,3.4425883,
AccInfo:	1748319218928	:	41.51	Speed:	0.00
BatteryTemperature:	24.6
#location,041338,37.2472132,127.0500187,0.0,0.0,270525,network,41.51,0.0,0.0,52.474243,
AccInfo:	1748319218928	:	41.51	Speed:	33.13
BatteryTemperature:	24.6
#location,041338,37.2471629,127.0499633,9.203546,45.230446,270525,fused,41.51,45.0,1.5,3.4753475,
$BDMSG,JAMMER_MSG,0/0/0/0/0,PASS*00
AccInfo:	1748319236598	:	77.6	Speed:	0.00
BatteryTemperature:	24.6
#location,041356,37.2464527,127.0486399,0.0,0.0,270525,network,77.6,0.0,0.0,100.0,
AccInfo:	1748319236598	:	77.6	Speed:	0.00
BatteryTemperature:	24.6
#location,041356,37.2464527,127.0486399,0.0,0.0,270525,fused,77.6,45.0,1.5,3.590683,
$BDMSG,JAMMER_MSG,0/0/0/0/0,PASS*00
AccInfo:	1748319242253	:	92.9	Speed:	0.00
BatteryTemperature:	24.6
#location,041402,37.2464802,127.0486817,0.0,0.0,270525,network,92.9,0.0,0.0,91.49154,
AccInfo:	1748319242253	:	92.9	Speed:	0.22
BatteryTemperature:	24.6
#location,041402,37.2464706,127.0486672,0.06230099,0.0,270525,fused,92.9,0.0,1.5,3.625712,
AccInfo:	1748319247043	:	84.044	Speed:	0.00
BatteryTemperature:	24.6
#location,041407,37.2460763,127.0486934,0.0,0.0,270525,network,84.044,0.0,0.0,100.0,
AccInfo:	1748319247042	:	88.472	Speed:	18.80
BatteryTemperature:	24.6
#location,041407,37.2461633,127.0486882,5.222676,176.7324,270525,fused,88.472,45.0,1.5,3.6579514,
$BDMSG,JAMMER_MSG,0/0/0/0/0,PASS*00
AccInfo:	1748319255545	:	71.169	Speed:	0.00
BatteryTemperature:	24.6
#location,041415,37.2462781,127.0500394,0.0,0.0,270525,network,71.169,0.0,0.0,35.84709,
AccInfo:	1748319255546	:	71.169	Speed:	40.69
BatteryTemperature:	24.6
#location,041415,37.2462502,127.0499677,11.302941,89.2117,270525,fused,71.169,45.0,1.5,3.3889008,
AccInfo:	1748319260500	:	70.71	Speed:	0.00
BatteryTemperature:	24.6
#location,041420,37.247176,127.049789,0.0,0.0,270525,network,70.71,0.0,0.0,100.0,
AccInfo:	1748319260499	:	70.939	Speed:	53.67
BatteryTemperature:	24.6
#location,041420,37.2470727,127.0498803,14.906988,3.6581707,270525,fused,70.939,45.0,1.5,3.4222236,
AccInfo:	1748319265705	:	82.5	Speed:	0.00
BatteryTemperature:	24.6
#location,041425,37.2464648,127.0487636,0.0,0.0,270525,network,82.5,0.0,0.0,55.402718,
AccInfo:	1748319265705	:	82.5	Speed:	44.32
BatteryTemperature:	24.6
#location,041425,37.2466669,127.0489452,12.311488,255.39688,270525,fused,82.5,45.0,1.5,3.4544632,
$BDMSG,JAMMER_MSG,0/0/0/0/0,PASS*00
AccInfo:	1748319269047	:	111.951	Speed:	0.00
BatteryTemperature:	24.6
#location,041429,37.247115,127.0500264,0.0,0.0,270525,network,111.951,0.0,0.0,15.942545,
AccInfo:	1748319269047	:	97.225	Speed:	17.63
BatteryTemperature:	24.6
#location,041429,37.2469174,127.0494677,4.897616,41.94846,270525,fused,97.225,45.0,1.5,3.3935761,
AccInfo:	1748319276263	:	77.6	Speed:	0.00
BatteryTemperature:	24.6
#location,041436,37.2464662,127.0486546,0.0,0.0,270525,network,77.6,0.0,0.0,20.408361,
AccInfo:	1748319276263	:	77.6	Speed:	25.20
BatteryTemperature:	24.6
#location,041436,37.2465169,127.0487342,6.999672,237.90422,270525,fused,77.6,45.0,1.5,8.237096,
$BDMSG,JAMMER_MSG,0/0/0/0/0,PASS*00
AccInfo:	1748319285723	:	64.152	Speed:	0.00
BatteryTemperature:	24.6
#location,041445,37.2469361,127.0500589,0.0,0.0,270525,network,64.152,0.0,0.0,64.831764,
AccInfo:	1748319285723	:	64.152	Speed:	37.88
BatteryTemperature:	24.6
#location,041445,37.2469102,127.0499899,10.523087,69.27691,270525,fused,64.152,45.0,1.5,8.298675,
AccInfo:	1748319290602	:	73.993	Speed:	0.00
BatteryTemperature:	24.6
#location,041450,37.2465991,127.0494082,0.0,0.0,270525,network,73.993,0.0,0.0,65.98363,
AccInfo:	1748319290602	:	69.072	Speed:	24.04
BatteryTemperature:	24.6
#location,041450,37.2466571,127.0495457,6.6773953,230.66849,270525,fused,69.072,45.0,1.5,8.330914,
$BDMSG,JAMMER_MSG,0/0/0/0/0,PASS*00
AccInfo:	1748319304156	:	55.863	Speed:	0.00
BatteryTemperature:	24.6
#location,041504,37.247174,127.0499372,0.0,0.0,270525,network,55.863,0.0,0.0,77.57733,
AccInfo:	1748319304156	:	55.863	Speed:	13.66
BatteryTemperature:	24.6
#location,041504,37.2471579,127.0499187,3.794281,27.593988,270525,fused,55.863,45.0,1.5,8.418914,
AccInfo:	1748319309174	:	55.523	Speed:	0.00
BatteryTemperature:	24.6
#location,041509,37.2471033,127.0500017,0.0,0.0,270525,network,55.523,0.0,0.0,22.514961,
AccInfo:	1748319309174	:	55.523	Speed:	5.77
BatteryTemperature:	24.6
#location,041509,37.2471152,127.0500027,1.6015967,109.95109,270525,fused,55.523,45.0,1.5,8.210668,
AccInfo:	1748319314373	:	98.4	Speed:	0.00
BatteryTemperature:	24.6
#location,041514,37.2464685,127.0486785,0.0,0.0,270525,network,98.4,0.0,0.0,100.0,
AccInfo:	1748319314373	:	98.4	Speed:	57.82
BatteryTemperature:	24.6
#location,041514,37.2466116,127.049004,16.060692,236.77904,270525,fused,98.4,45.0,1.5,8.2449875,
AccInfo:	1748319319179	:	119.29	Speed:	0.00
BatteryTemperature:	24.6
#location,041519,37.24696,127.0492893,0.0,0.0,270525,network,119.29,0.0,0.0,70.09423,
AccInfo:	1748319319179	:	108.845	Speed:	15.27
BatteryTemperature:	24.6
#location,041519,37.2467709,127.0490259,4.2411666,263.48145,270525,fused,108.845,45.0,1.5,8.275667,
AccInfo:	1748319324190	:	78.117	Speed:	0.00
BatteryTemperature:	24.6
#location,041524,37.2471267,127.0497633,0.0,0.0,270525,network,78.117,0.0,0.0,94.89017,
AccInfo:	1748319324190	:	78.117	Speed:	24.98
BatteryTemperature:	24.6
#location,041524,37.2470857,127.0496573,6.9376855,52.373615,270525,fused,78.117,45.0,1.5,8.30843,
AccInfo:	1748319329344	:	92.9	Speed:	0.00
BatteryTemperature:	24.6
#location,041529,37.2464706,127.0486371,0.0,0.0,270525,network,92.9,0.0,0.0,24.04039,
AccInfo:	1748319329344	:	92.9	Speed:	37.63
BatteryTemperature:	24.6
#location,041529,37.246624,127.0488905,10.453942,232.9875,270525,fused,92.9,45.0,1.5,11.156808,
$BDMSG,JAMMER_MSG,0/0/0/0/0,PASS*00
AccInfo:	1748319334950	:	84.508	Speed:	0.00
BatteryTemperature:	24.6
#location,041534,37.2466111,127.0488038,0.0,0.0,270525,network,84.508,0.0,0.0,100.0,
AccInfo:	1748319334950	:	84.508	Speed:	16.72
BatteryTemperature:	24.6
#location,041534,37.246572,127.048747,4.6445665,237.82417,270525,fused,84.508,45.0,1.5,11.195131,
AccInfo:	1748319340013	:	98.4	Speed:	0.00
BatteryTemperature:	24.6
#location,041540,37.2467913,127.0500495,0.0,0.0,270525,network,98.4,0.0,0.0,18.49,
AccInfo:	1748319340013	:	98.4	Speed:	42.09
BatteryTemperature:	24.6
#location,041540,37.2467257,127.0497476,11.691912,81.36073,270525,fused,98.4,45.0,1.5,11.109373,
AccInfo:	1748319477732	:	88.063	Speed:	0.00
BatteryTemperature:	24.6
#location,041757,37.2465144,127.0489274,0.0,0.0,270525,network,88.063,0.0,0.0,61.986095,
AccInfo:	1748319477732	:	88.063	Speed:	0.00
BatteryTemperature:	24.6
#location,041757,37.2465144,127.0489274,0.0,0.0,270525,fused,88.063,45.0,1.5,8.743226,
AccInfo:	1748319783992	:	100.0	Speed:	0.00
BatteryTemperature:	24.6
#location,042303,37.2465144,127.0489274,0.0,0.0,270525,fused,100.0,0.0,0.0,100.0,
AccInfo:	1748319784120	:	54.098	Speed:	0.00
BatteryTemperature:	24.6
#location,042304,37.2461491,127.0499579,0.0,0.0,270525,network,54.098,0.0,0.0,37.505726,
AccInfo:	1748319784120	:	54.098	Speed:	0.00
BatteryTemperature:	24.6
#location,042304,37.2461491,127.0499579,0.0,0.0,270525,fused,54.098,45.0,1.5,37.505726,
$BDMSG,JAMMER_MSG,0/0/0/0/0,PASS*00
AccInfo:	1748319836721	:	2099.999	Speed:	0.00
BatteryTemperature:	24.6
#location,042356,37.2467387,127.0485874,0.0,0.0,270525,network,2099.999,0.0,0.0,0.0,
AccInfo:	1748319836721	:	2099.999	Speed:	0.00
BatteryTemperature:	24.6
#location,042356,37.2467387,127.0485874,0.0,0.0,270525,fused,2099.999,45.0,1.5,37.505726,
AccInfo:	1748319841889	:	82.5	Speed:	0.00
BatteryTemperature:	24.6
#location,042401,37.2461808,127.0480957,0.0,0.0,270525,network,82.5,0.0,0.0,13.58449,
AccInfo:	1748319841889	:	82.5	Speed:	0.01
BatteryTemperature:	24.6
#location,042401,37.2461812,127.048096,0.002216786,0.0,270525,fused,82.5,0.0,1.5,10.987721,
AccInfo:	1748319846909	:	52.4	Speed:	0.00
BatteryTemperature:	24.6
#location,042406,37.2461509,127.0480811,0.0,0.0,270525,network,52.4,0.0,0.0,4.56265,
AccInfo:	1748319846910	:	52.4	Speed:	1.67
BatteryTemperature:	24.6
#location,042406,37.2461538,127.0480825,0.4630326,201.45815,270525,fused,52.4,45.0,1.5,11.52643,
$BDMSG,JAMMER_MSG,0/0/0/0/0,PASS*00
AccInfo:	1748319855439	:	38.303	Speed:	0.00
BatteryTemperature:	24.6
#location,042415,37.2461844,127.0480918,0.0,0.0,270525,network,38.303,0.0,0.0,13.562112,
AccInfo:	1748319855438	:	38.303	Speed:	1.15
BatteryTemperature:	24.6
#location,042415,37.2461832,127.0480913,0.32004195,12.375236,270525,fused,38.303,45.0,1.5,11.366053,
AccInfo:	1748319860529	:	64.1	Speed:	0.00
BatteryTemperature:	24.6
#location,042420,37.2461502,127.0480444,0.0,0.0,270525,network,64.1,0.0,0.0,13.72465,
AccInfo:	1748319860529	:	64.1	Speed:	3.03
BatteryTemperature:	24.6
#location,042420,37.2461554,127.04805,0.8404397,230.92302,270525,fused,64.1,45.0,1.5,10.453741,
#GnssStatus,2,1,12,1,1.57542003E9,23.2,1,15,3,1.602E9,25.3,0
$GPGSV,1,1,01,12,23,304,23,1*51
$GLGSV,1,1,01,15,20,274,25,1*49
#GnssStatus,2,1,12,1,1.57542003E9,23.2,1,15,3,1.602E9,25.3,0
$GPGSV,1,1,01,12,23,304,23,1*51
$GLGSV,1,1,01,15,20,274,25,1*49
#GnssStatus,2,1,12,1,1.57542003E9,23.2,1,15,3,1.602E9,25.3,0
$GPGSV,1,1,01,12,23,304,23,1*51
$GLGSV,1,1,01,15,20,274,25,1*49
#GnssStatus,2,1,12,1,1.57542003E9,23.2,1,15,3,1.602E9,25.3,0
$GPGSV,1,1,01,12,23,304,23,1*51
$GLGSV,1,1,01,15,20,274,25,1*49
#GnssStatus,2,1,12,1,1.57542003E9,24.4,1,15,3,1.602E9,25.3,0
$GPGSV,1,1,01,12,23,304,24,1*56
$GLGSV,1,1,01,15,20,274,25,1*49
AccInfo:	1748319865481	:	30.0	Speed:	0.00
BatteryTemperature:	24.6
#location,042425,37.2461824,127.0480959,0.0,0.0,270525,network,30.0,0.0,0.0,10.812984,
AccInfo:	1748319865481	:	47.05	Speed:	1.93
BatteryTemperature:	24.6
#location,042425,37.246181,127.0480936,0.5368835,54.600895,270525,fused,47.05,45.0,1.5,11.031375,
$BDMSG,JAMMER_MSG,0/0/0/0/0,PASS*00
AccInfo:	1748319917763	:	54.241	Speed:	0.00
BatteryTemperature:	25.8
#location,042517,37.2462879,127.0494093,0.0,0.0,270525,network,54.241,0.0,0.0,26.047258,
AccInfo:	1748319917763	:	54.241	Speed:	0.00
BatteryTemperature:	25.8
#location,042517,37.2462879,127.0494093,0.0,0.0,270525,fused,54.241,45.0,1.5,11.515406,
$GLGSV,1,1,01,24,54,053,35,1*4E
#GnssStatus,1,1,24,3,1.60312499E9,34.7,1
#GnssStatus,24,17,3,1,1.57542003E9,27.5,0,4,1,1.57542003E9,26.6,1,6,1,1.57542003E9,35.0,1,9,1,1.57542003E9,39.2,1,17,1,1.57542003E9,31.0,1,19,1,1.57542003E9,30.1,1,195,4,1.57542003E9,29.9,0,16,3,1.60143744E9,25.7,1,1,3,1.60256256E9,36.3,0,24,3,1.60312499E9,36.2,1,17,3,1.60424998E9,34.9,1,44,5,1.56109798E9,34.9,1,40,5,1.56109798E9,30.8,1,35,5,1.56109798E9,34.3,1,34,5,1.56109798E9,32.4,1,22,5,1.56109798E9,30.3,1,12,5,1.56109798E9,30.9,0,3,6,1.57542003E9,27.6,0,5,6,1.57542003E9,34.0,1,34,6,1.57542003E9,37.5,1,36,6,1.57542003E9,32.3,1,6,1,1.17645005E9,28.0,0,9,1,1.17645005E9,34.5,1,195,4,1.17645005E9,24.8,0
$GPGSV,2,1,06,03,05,045,28,04,28,065,27,06,64,346,35,09,41,108,39,1*68
$GPGSV,2,2,06,17,48,136,31,19,77,131,30,1*66
$GPGSV,1,1,02,06,64,346,28,09,41,108,35,8*63
$GLGSV,1,1,04,16,11,325,26,01,59,072,36,24,54,053,36,17,39,325,35,1*7C
$GAGSV,1,1,04,03,22,153,28,05,35,096,34,34,59,034,38,36,17,075,32,7*75
$GQGSV,1,1,01,03,78,072,30,1*5E
$GQGSV,1,1,01,03,78,072,25,8*53
$GBGSV,2,1,06,44,76,009,35,40,81,158,31,35,42,105,34,34,28,307,32,1*75
$GBGSV,2,2,06,22,67,110,30,12,54,322,31,1*71
#GnssStatus,33,25,3,1,1.57542003E9,23.5,0,4,1,1.57542003E9,30.7,1,6,1,1.57542003E9,32.8,1,9,1,1.57542003E9,40.2,1,11,1,1.57542003E9,28.3,1,17,1,1.57542003E9,33.0,1,19,1,1.57542003E9,29.8,1,195,4,1.57542003E9,27.4,0,196,4,1.57542003E9,33.0,0,16,3,1.60143744E9,32.2,1,1,3,1.60256256E9,33.2,0,24,3,1.60312499E9,35.9,1,17,3,1.60424998E9,34.3,1,44,5,1.56109798E9,32.8,1,40,5,1.56109798E9,30.4,1,35,5,1.56109798E9,32.9,1,34,5,1.56109798E9,28.0,1,22,5,1.56109798E9,31.6,1,19,5,1.56109798E9,27.4,1,12,5,1.56109798E9,29.7,0,10,5,1.56109798E9,28.5,1,7,5,1.56109798E9,34.4,1,3,6,1.57542003E9,27.6,0,5,6,1.57542003E9,30.5,1,15,6,1.57542003E9,28.3,1,34,6,1.57542003E9,37.0,1,36,6,1.57542003E9,27.1,1,6,1,1.17645005E9,27.8,0,9,1,1.17645005E9,33.4,1,195,4,1.17645005E9,23.8,0,22,5,1.17645005E9,27.1,1,35,5,1.17645005E9,28.4,1,44,5,1.17645005E9,26.0,1
$GPGSV,2,1,07,03,05,045,24,04,28,065,31,06,64,346,33,09,41,108,40,1*6A
$GPGSV,2,2,07,11,41,294,28,17,48,136,33,19,77,131,30,1*55
$GPGSV,1,1,02,06,64,346,28,09,41,108,33,8*65
$GLGSV,1,1,04,16,11,325,32,01,59,072,33,24,54,053,36,17,39,325,34,1*7D
$GAGSV,2,1,05,03,22,153,28,05,35,096,31,15,46,297,28,34,59,034,37,7*7D
$GAGSV,2,2,05,36,17,075,27,7*42
$GQGSV,1,1,02,03,78,072,27,04,51,152,33,1*6D
$GQGSV,1,1,01,03,78,072,24,8*52
$GBGSV,3,1,09,44,76,009,33,40,81,158,30,35,42,105,33,34,28,307,28,1*70
$GBGSV,3,2,09,22,67,110,32,19,28,044,27,12,54,322,30,10,68,275,29,1*7F
$GBGSV,3,3,09,07,75,232,34,1*4E
$GBGSV,1,1,03,22,67,110,27,35,42,105,28,44,76,009,26,5*47
$GNGSA,A,3,03,04,06,09,11,17,19,,,,,,1.1,0.9,0.7,1*39
$GNGSA,A,3,80,81,88,,,,,,,,,,1.1,0.9,0.7,2*3D
AccInfo:	1748319922442	:	25.33205	Speed:	7.45
BatteryTemperature:	25.8
#location,042522,37.24639745,127.04960163,2.07,144.8,270525,gps,25.33205,36.384655,1.1798759,28.705633,
$GNGSA,A,3,03,05,15,34,36,,,,,,,,1.1,0.9,0.7,3*3D
$GNGSA,A,3,07,10,12,19,22,34,35,40,44,,,,1.1,0.9,0.7,4*32
$GNVTG,144.8,T,153.8,M,4.0,N,7.5,K,A*3D
$GNDTM,W84,,0000.000000,N,00000.000000,E,0.000,W84*41
$GNRMC,042522.44,A,3714.783847,N,12702.976098,E,4.0,144.8,270525,9.0,W,A,V*4A
$GNGNS,042522.44,3714.783847,N,12702.976098,E,AAAANN,24,0.9,68.0,23.2,,,V*1A
$GNGGA,042522.44,3714.783847,N,12702.976098,E,1,12,0.9,68.0,M,23.2,M,,*4F
$PSMSG,Mag=F,Gyro=UN,bluesky=1*00
AccInfo:	1748319922435	:	39.786	Speed:	7.41
BatteryTemperature:	25.8
#location,042522,37.2463893,127.0495883,2.0589533,143.91614,270525,fused,39.786,36.384655,1.1798759,11.597048,
#GnssStatus,42,24,3,1,1.57542003E9,23.5,1,4,1,1.57542003E9,31.3,1,6,1,1.57542003E9,33.8,1,9,1,1.57542003E9,37.4,1,11,1,1.57542003E9,26.6,1,12,1,1.57542003E9,22.9,0,17,1,1.57542003E9,38.4,1,19,1,1.57542003E9,26.2,1,195,4,1.57542003E9,28.0,0,196,4,1.57542003E9,27.5,0,2,3,1.59975002E9,22.2,0,16,3,1.60143744E9,31.2,1,1,3,1.60256256E9,32.6,0,24,3,1.60312499E9,35.7,1,17,3,1.60424998E9,33.5,1,59,5,1.56109798E9,27.6,0,44,5,1.56109798E9,30.1,1,40,5,1.56109798E9,28.9,1,35,5,1.56109798E9,26.0,1,34,5,1.56109798E9,29.2,1,22,5,1.56109798E9,34.1,1,19,5,1.56109798E9,27.0,1,12,5,1.56109798E9,31.7,1,10,5,1.56109798E9,28.5,1,7,5,1.56109798E9,32.3,1,4,5,1.56109798E9,29.0,0,1,5,1.56109798E9,28.2,0,3,6,1.57542003E9,27.6,1,5,6,1.57542003E9,25.3,1,15,6,1.57542003E9,28.9,1,18,6,1.57542003E9,41.5,0,34,6,1.57542003E9,33.9,1,36,6,1.57542003E9,30.1,1,4,1,1.17645005E9,23.2,0,6,1,1.17645005E9,34.2,0,9,1,1.17645005E9,31.6,0,195,4,1.17645005E9,23.8,0,196,4,1.17645005E9,24.6,0,19,5,1.17645005E9,26.0,0,22,5,1.17645005E9,28.1,0,35,5,1.17645005E9,25.3,0,44,5,1.17645005E9,26.0,0
$GPGSV,2,1,08,03,05,045,24,04,28,065,31,06,64,346,34,09,41,108,37,1*62
$GPGSV,2,2,08,11,41,294,27,12,23,304,23,17,48,136,38,19,77,131,26,1*6D
$GPGSV,1,1,03,04,28,065,23,06,64,346,34,09,41,108,32,8*54
$GLGSV,2,1,05,02,44,164,22,16,11,325,31,01,59,072,33,24,54,053,36,1*72
$GLGSV,2,2,05,17,39,325,34,1*42
$GAGSV,2,1,06,03,22,153,28,05,35,096,25,15,46,297,29,18,68,148,42,7*7E
$GAGSV,2,2,06,34,59,034,34,36,17,075,30,7*7C
$GQGSV,1,1,02,03,78,072,28,04,51,152,28,1*68
$GQGSV,1,1,02,03,78,072,24,04,51,152,25,8*60
$GBGSV,3,1,12,59,44,159,28,44,76,009,30,40,81,158,29,35,42,105,26,1*7D
$GBGSV,3,2,12,34,28,307,29,22,67,110,34,19,28,044,27,12,54,322,32,1*77
$GBGSV,3,3,12,10,68,275,29,07,75,232,32,04,36,132,29,01,44,152,28,1*71
$GBGSV,1,1,04,19,28,044,26,22,67,110,28,35,42,105,25,44,76,009,26,5*74
$GNGSA,A,3,03,04,06,09,11,12,17,19,,,,,1.1,0.8,0.7,1*3B
$GNGSA,A,3,66,80,81,88,,,,,,,,,1.1,0.8,0.7,2*3C
$GNGSA,A,3,03,05,15,18,34,36,,,,,,,1.1,0.8,0.7,3*35
$GNGSA,A,3,07,10,12,19,22,34,35,40,44,,,,1.1,0.8,0.7,4*33
AccInfo:	1748319923452	:	22.711405	Speed:	9.68
BatteryTemperature:	25.8
#location,042523,37.24631294,127.04962458,2.69,97.0,270525,gps,22.711405,26.545141,1.1087297,30.06865,
$GNVTG,97.0,T,106.0,M,5.2,N,9.7,K,A*0D
$GNDTM,W84,,0000.000000,N,00000.000000,E,0.000,W84*41
$GNRMC,042523.45,A,3714.778776,N,12702.977475,E,5.2,97.0,270525,9.0,W,A,V*71
$GNGNS,042523.45,3714.778776,N,12702.977475,E,AAAANN,27,0.8,78.0,23.2,,,V*16
$GNGGA,042523.45,3714.778776,N,12702.977475,E,1,12,0.8,78.0,M,23.2,M,,*40
$PSMSG,Mag=F,Gyro=UN,bluesky=0*00
AccInfo:	1748319923433	:	24.021	Speed:	9.59
BatteryTemperature:	25.8
#location,042523,37.2463389,127.0496153,2.6644573,97.83684,270525,fused,24.021,26.545141,1.1087297,11.259246,
AccInfo:	1748319922797	:	61.434	Speed:	0.00
BatteryTemperature:	25.8
#location,042522,37.24681,127.0500327,0.0,0.0,270525,network,61.434,0.0,0.0,82.63014,
$BDMSG,JAMMER_MSG,0/0/0/0/0,PASS*00
AccInfo:	1748319994161	:	50.726	Speed:	0.00
BatteryTemperature:	25.8
#location,042634,37.2451882,127.0460261,0.0,0.0,270525,network,50.726,0.0,0.0,86.48217,
AccInfo:	1748319994162	:	50.726	Speed:	0.00
BatteryTemperature:	25.8
#location,042634,37.2451882,127.0460261,0.0,0.0,270525,fused,50.726,45.0,1.5,12.049102,
#GnssStatus,32,17,6,1,1.57542003E9,29.5,1,9,1,1.57542003E9,38.3,1,11,1,1.57542003E9,36.5,1,17,1,1.57542003E9,39.1,1,19,1,1.57542003E9,37.9,1,194,4,1.57542003E9,28.4,0,195,4,1.57542003E9,31.8,0,196,4,1.57542003E9,30.0,0,15,3,1.602E9,29.6,0,1,3,1.60256256E9,30.8,0,24,3,1.60312499E9,37.0,1,8,3,1.60537498E9,28.6,0,60,5,1.56109798E9,29.6,0,44,5,1.56109798E9,32.8,1,40,5,1.56109798E9,26.5,1,35,5,1.56109798E9,32.3,1,22,5,1.56109798E9,27.0,1,21,5,1.56109798E9,27.1,0,13,5,1.56109798E9,37.1,0,12,5,1.56109798E9,34.4,1,10,5,1.56109798E9,32.8,1,8,5,1.56109798E9,35.6,0,7,5,1.56109798E9,31.0,1,3,6,1.57542003E9,28.0,1,5,6,1.57542003E9,26.3,1,18,6,1.57542003E9,39.0,1,27,6,1.57542003E9,34.1,0,30,6,1.57542003E9,30.1,0,34,6,1.57542003E9,34.9,1,18,6,1.17645005E9,30.4,0,30,6,1.17645005E9,25.7,0,34,6,1.17645005E9,28.8,0
$GPGSV,2,1,05,06,64,347,30,09,41,107,38,11,41,295,37,17,48,137,39,1*6E
$GPGSV,2,2,05,19,76,132,38,1*53
$GLGSV,1,1,04,15,20,273,30,01,59,070,31,24,54,054,37,08,13,027,29,1*71
$GAGSV,2,1,06,03,23,153,28,05,35,095,26,18,67,148,39,27,34,289,34,7*7B
$GAGSV,2,2,06,30,37,224,30,34,59,034,35,7*7F
$GAGSV,1,1,03,18,67,148,30,30,37,224,26,34,59,034,29,1*40
$GQGSV,1,1,03,02,36,178,28,03,78,073,32,04,51,152,30,1*59
$GBGSV,3,1,11,60,25,240,30,44,76,011,33,40,80,159,27,35,42,105,32,1*70
$GBGSV,3,2,11,22,67,109,27,21,35,190,27,13,37,232,37,12,55,322,34,1*75
$GBGSV,3,3,11,10,68,274,33,08,51,233,36,07,75,232,31,1*47
$GNGSA,A,3,06,09,11,17,19,,,,,,,,1.0,0.7,0.7,1*31
$GNGSA,A,3,72,79,88,,,,,,,,,,1.0,0.7,0.7,2*38
$GNGSA,A,3,03,05,18,27,30,34,,,,,,,1.0,0.7,0.7,3*3C
$GNGSA,A,3,07,08,10,12,13,21,22,35,40,44,60,,1.0,0.7,0.7,4*3D
AccInfo:	1748319995000	:	6.3637614	Speed:	53.82
BatteryTemperature:	25.8
#location,042635,37.24524865,127.04529856,14.95,263.5,270525,gps,6.3637614,3.0041735,0.69800806,9.168683,
$GNVTG,263.5,T,272.5,M,29.1,N,53.8,K,A*39
$GNDTM,W84,,0000.000000,N,00000.000000,E,0.000,W84*41
$GNRMC,042635.00,A,3714.714919,N,12702.717914,E,29.1,263.5,270525,9.0,W,A,V*7A
$GNGNS,042635.00,3714.714919,N,12702.717914,E,AAAANN,25,0.7,49.0,23.2,,,V*13
$GNGGA,042635.00,3714.714919,N,12702.717914,E,1,12,0.7,49.0,M,23.2,M,,*47
$PSMSG,Mag=F,Gyro=UN,bluesky=0*00
AccInfo:	1748319995020	:	28.545	Speed:	53.47
BatteryTemperature:	25.8
#location,042635,37.2452483,127.0453032,14.853638,263.01495,270525,fused,28.545,3.0041735,0.69800806,10.9550495,
#GnssStatus,54,25,6,1,1.57542003E9,25.1,1,9,1,1.57542003E9,38.4,1,11,1,1.57542003E9,37.5,1,17,1,1.57542003E9,39.6,1,19,1,1.57542003E9,38.3,1,22,1,1.57542003E9,24.6,0,194,4,1.57542003E9,24.3,0,195,4,1.57542003E9,32.1,0,196,4,1.57542003E9,29.4,0,2,3,1.59975002E9,29.8,0,15,3,1.602E9,25.7,1,1,3,1.60256256E9,30.0,0,24,3,1.60312499E9,36.7,1,8,3,1.60537498E9,25.5,1,60,5,1.56109798E9,29.6,1,44,5,1.56109798E9,32.5,1,40,5,1.56109798E9,27.1,1,38,5,1.56109798E9,24.6,0,35,5,1.56109798E9,31.3,1,25,5,1.56109798E9,24.4,0,22,5,1.56109798E9,27.9,1,21,5,1.56109798E9,27.1,1,13,5,1.56109798E9,37.6,1,12,5,1.56109798E9,29.3,1,10,5,1.56109798E9,32.7,1,8,5,1.56109798E9,35.8,1,7,5,1.56109798E9,32.2,1,3,5,1.56109798E9,35.9,0,3,6,1.57542003E9,19.6,1,5,6,1.57542003E9,27.6,1,15,6,1.57542003E9,35.8,0,18,6,1.57542003E9,38.6,1,27,6,1.57542003E9,32.4,1,30,6,1.57542003E9,31.2,1,34,6,1.57542003E9,34.9,1,9,1,1.17645005E9,21.4,0,11,1,1.17645005E9,24.6,0,196,4,1.17645005E9,25.1,0,5,6,1.17645005E9,20.9,0,15,6,1.17645005E9,25.2,0,18,6,1.17645005E9,29.5,0,27,6,1.17645005E9,24.7,0,30,6,1.17645005E9,23.3,0,34,6,1.17645005E9,27.4,0,36,6,1.17645005E9,25.7,0,19,5,1.17645005E9,23.8,0,22,5,1.17645005E9,26.6,0,44,5,1.17645005E9,28.9,0,21,5,1.57542003E9,20.9,0,22,5,1.57542003E9,33.6,0,35,5,1.57542003E9,36.8,0,38,5,1.57542003E9,24.4,0,40,5,1.57542003E9,29.1,0,44,5,1.57542003E9,31.2,0
$GPGSV,2,1,06,06,64,347,25,09,41,107,38,11,41,295,38,17,48,137,40,1*68
$GPGSV,2,2,06,19,76,132,38,22,18,195,25,1*63
$GPGSV,1,1,02,09,41,107,21,11,41,295,25,8*6A
$GLGSV,2,1,05,02,45,163,30,15,20,273,26,01,59,070,30,24,54,054,37,1*75
$GLGSV,2,2,05,08,13,027,26,1*46
$GAGSV,2,1,07,03,23,153,20,05,35,095,28,15,46,297,36,18,67,148,39,7*75
$GAGSV,2,2,07,27,34,289,32,30,37,224,31,34,59,034,35,7*4F
$GAGSV,2,1,07,05,35,095,21,15,46,297,25,18,67,148,30,27,34,289,25,1*70
$GAGSV,2,2,07,30,37,224,23,34,59,034,27,36,16,076,26,1*4E
$GQGSV,1,1,03,02,36,178,24,03,78,073,32,04,51,152,29,1*5D
$GQGSV,1,1,01,04,51,152,25,8*5C
$GBGSV,4,1,14,60,25,240,30,44,76,011,33,40,80,159,27,38,61,238,25,1*75
$GBGSV,4,2,14,35,42,105,31,25,05,292,24,22,67,109,28,21,35,190,27,1*75
$GBGSV,4,3,14,13,37,232,38,12,55,322,29,10,68,274,33,08,51,233,36,1*74
$GBGSV,4,4,14,07,75,232,32,03,43,206,36,1*71
$GBGSV,2,1,06,21,35,190,21,22,67,109,34,35,42,105,37,38,61,238,24,3*72
$GBGSV,2,2,06,40,80,159,29,44,76,011,31,3*7B
$GBGSV,1,1,03,19,27,044,24,22,67,109,27,44,76,011,29,5*4C
$GNGSA,A,3,06,09,11,17,19,,,,,,,,1.0,0.7,0.7,1*31
$GNGSA,A,3,72,79,88,,,,,,,,,,1.0,0.7,0.7,2*38
$GNGSA,A,3,03,05,15,18,27,30,34,,,,,,1.0,0.7,0.7,3*38
$GNGSA,A,3,07,08,10,12,13,21,22,35,38,40,44,60,1.0,0.7,0.7,4*36
$GNVTG,263.7,T,272.7,M,29.0,N,53.6,K,A*36
AccInfo:	1748319996000	:	7.3418508	Speed:	53.64
BatteryTemperature:	25.8
#location,042636,37.24529653,127.04514815,14.9,263.7,270525,gps,7.3418508,3.6447418,1.0078773,11.611201,
$GNDTM,W84,,0000.000000,N,00000.000000,E,0.000,W84*41
$GNRMC,042636.00,A,3714.717792,N,12702.708889,E,29.0,263.7,270525,9.0,W,A,V*7F
$GNGNS,042636.00,3714.717792,N,12702.708889,E,AAAANN,27,0.7,28.9,23.2,,,V*19
$GNGGA,042636.00,3714.717792,N,12702.708889,E,1,12,0.7,28.9,M,23.2,M,,*4F
$PSMSG,Mag=F,Gyro=UN,bluesky=0*00
AccInfo:	1748319996019	:	21.477	Speed:	53.64
BatteryTemperature:	25.8
#location,042636,37.2452797,127.0451452,14.899,263.003,270525,fused,21.477,3.6447418,1.0078773,11.146275,
$BDMSG,JAMMER_MSG,0/0/0/0/0,PASS*00
#GnssStatus,17,11,6,1,1.57542003E9,40.1,1,12,1,1.57542003E9,30.9,0,17,1,1.57542003E9,35.9,1,19,1,1.57542003E9,39.6,1,16,3,1.60143744E9,28.3,0,15,3,1.602E9,33.7,1,1,3,1.60256256E9,27.0,0,24,3,1.60312499E9,33.7,1,17,3,1.60424998E9,34.0,0,38,5,1.56109798E9,35.8,1,35,5,1.56109798E9,34.1,1,12,5,1.56109798E9,33.4,1,5,6,1.57542003E9,33.1,1,15,6,1.57542003E9,35.0,1,18,6,1.57542003E9,31.9,1,5,6,1.17645005E9,26.4,0,18,6,1.17645005E9,29.8,0
$GPGSV,1,1,04,06,64,347,40,12,23,303,31,17,47,137,36,19,76,132,40,1*68
$GLGSV,2,1,05,16,11,324,28,15,19,272,34,01,59,070,27,24,54,055,34,1*75
$GLGSV,2,2,05,17,40,326,34,1*4F
$GAGSV,1,1,03,05,35,095,33,15,46,298,35,18,67,148,32,7*48
$GAGSV,1,1,02,05,35,095,26,18,67,148,30,1*7A
$GBGSV,1,1,03,38,61,238,36,35,41,106,34,12,55,323,33,1*47
AccInfo:	1748320025980	:	80.221	Speed:	0.00
BatteryTemperature:	25.8
#location,042705,37.2467089,127.0392588,0.0,0.0,270525,network,80.221,0.0,0.0,71.63093,
AccInfo:	1748320025979	:	80.221	Speed:	0.00
BatteryTemperature:	25.8
#location,042705,37.2467089,127.0392588,0.0,0.0,270525,fused,80.221,45.0,1.5,10.961758,
#GnssStatus,58,22,4,1,1.57542003E9,31.6,0,6,1,1.57542003E9,39.6,1,9,1,1.57542003E9,29.4,1,11,1,1.57542003E9,27.1,1,12,1,1.57542003E9,29.0,0,17,1,1.57542003E9,34.0,1,19,1,1.57542003E9,39.4,1,20,1,1.57542003E9,24.3,0,22,1,1.57542003E9,32.8,0,194,4,1.57542003E9,34.5,0,195,4,1.57542003E9,27.3,0,196,4,1.57542003E9,34.2,0,2,3,1.59975002E9,23.8,0,16,3,1.60143744E9,27.9,0,15,3,1.602E9,34.3,1,1,3,1.60256256E9,25.1,0,24,3,1.60312499E9,32.6,1,17,3,1.60424998E9,33.6,0,44,5,1.56109798E9,26.4,1,40,5,1.56109798E9,25.6,1,38,5,1.56109798E9,34.8,1,35,5,1.56109798E9,34.3,1,34,5,1.56109798E9,32.7,0,22,5,1.56109798E9,30.0,1,21,5,1.56109798E9,27.2,1,19,5,1.56109798E9,29.5,0,12,5,1.56109798E9,33.4,1,8,5,1.56109798E9,26.6,1,7,5,1.56109798E9,26.2,1,1,5,1.56109798E9,33.8,0,3,6,1.57542003E9,31.4,1,5,6,1.57542003E9,32.4,1,9,6,1.57542003E9,22.3,0,15,6,1.57542003E9,36.3,1,18,6,1.57542003E9,32.8,1,27,6,1.57542003E9,25.4,1,30,6,1.57542003E9,33.1,1,6,1,1.17645005E9,22.1,0,9,1,1.17645005E9,22.5,0,194,4,1.17645005E9,25.9,0,195,4,1.17645005E9,28.9,0,196,4,1.17645005E9,23.4,0,5,6,1.17645005E9,22.4,0,18,6,1.17645005E9,29.5,0,27,6,1.17645005E9,23.6,0,34,6,1.17645005E9,29.0,0,19,5,1.17645005E9,24.4,0,21,5,1.17645005E9,27.9,0,22,5,1.17645005E9,28.9,0,34,5,1.17645005E9,24.5,0,19,5,1.57542003E9,28.8,0,21,5,1.57542003E9,30.8,0,22,5,1.57542003E9,38.7,0,34,5,1.57542003E9,29.4,0,35,5,1.57542003E9,31.0,0,38,5,1.57542003E9,34.8,0,40,5,1.57542003E9,35.5,0,44,5,1.57542003E9,25.6,0
$GPGSV,3,1,09,04,28,064,32,06,64,347,40,09,41,106,29,11,41,295,27,1*6C
$GPGSV,3,2,09,12,23,303,29,17,47,137,34,19,76,132,39,20,29,239,24,1*66
$GPGSV,3,3,09,22,18,195,33,1*59
$GPGSV,1,1,02,06,64,347,22,09,41,106,23,8*61
$GLGSV,2,1,06,02,45,163,24,16,11,324,28,15,19,272,34,01,59,070,25,1*75
$GLGSV,2,2,06,24,54,055,33,17,40,326,34,1*7B
$GAGSV,2,1,07,03,23,153,31,05,35,095,32,09,14,043,22,15,46,298,36,7*75
$GAGSV,2,2,07,18,67,148,33,27,34,289,25,30,37,224,33,7*44
$GAGSV,1,1,04,05,35,095,22,18,67,148,30,27,34,289,24,34,59,035,29,1*79
$GQGSV,1,1,03,02,36,178,35,03,78,073,27,04,51,152,34,1*55
$GQGSV,1,1,03,02,36,178,26,03,78,073,29,04,51,152,23,8*56
$GBGSV,3,1,12,44,77,012,26,40,80,159,26,38,61,238,35,35,41,106,34,1*75
$GBGSV,3,2,12,34,28,307,33,22,67,108,30,21,35,190,27,19,27,044,30,1*70
$GBGSV,3,3,12,12,55,323,33,08,51,234,27,07,75,232,26,01,44,152,34,1*7A
$GBGSV,2,1,08,19,27,044,29,21,35,190,31,22,67,108,39,34,28,307,29,3*76
$GBGSV,2,2,08,35,41,106,31,38,61,238,35,40,80,159,36,44,77,012,26,3*7A
$GBGSV,1,1,04,19,27,044,24,21,35,190,28,22,67,108,29,34,28,307,25,5*77
$GNGSA,A,3,04,06,09,11,12,17,19,,,,,,0.9,0.6,0.7,1*3F
$GNGSA,A,3,79,80,81,88,,,,,,,,,0.9,0.6,0.7,2*35
$GNGSA,A,3,05,09,15,18,30,,,,,,,,0.9,0.6,0.7,3*39
$GNGSA,A,3,07,08,12,19,21,22,34,35,38,40,44,,0.9,0.6,0.7,4*35
$GNVTG,277.9,T,286.9,M,30.3,N,56.2,K,A*32
$GNDTM,W84,,0000.000000,N,00000.000000,E,0.000,W84*41
AccInfo:	1748320028000	:	6.2371187	Speed:	56.20
BatteryTemperature:	25.8
#location,042708,37.24514184,127.04009906,15.61,277.9,270525,gps,6.2371187,3.4523096,1.0053623,9.079787,
$GNRMC,042708.00,A,3714.708510,N,12702.405944,E,30.3,277.9,270525,9.0,W,A,V*7B
$GNGNS,042708.00,3714.708510,N,12702.405944,E,AAAANN,27,0.6,10.5,23.2,,,V*1B
$GNGGA,042708.00,3714.708510,N,12702.405944,E,1,12,0.6,10.5,M,23.2,M,,*4D
$PSMSG,Mag=F,Gyro=UN,bluesky=0*00
AccInfo:	1748320028019	:	6.237	Speed:	55.77
BatteryTemperature:	25.8
#location,042708,37.2451458,127.0400968,15.492927,276.97693,270525,fused,6.237,3.4523096,1.0053623,10.455699,
#GnssStatus,64,33,4,1,1.57542003E9,29.7,1,6,1,1.57542003E9,38.5,1,9,1,1.57542003E9,27.8,1,11,1,1.57542003E9,29.7,1,12,1,1.57542003E9,26.0,1,17,1,1.57542003E9,31.7,1,19,1,1.57542003E9,37.6,1,20,1,1.57542003E9,24.8,0,22,1,1.57542003E9,30.4,0,194,4,1.57542003E9,36.0,0,195,4,1.57542003E9,30.2,0,196,4,1.57542003E9,37.0,0,2,3,1.59975002E9,26.8,0,16,3,1.60143744E9,27.5,1,15,3,1.602E9,33.6,1,1,3,1.60256256E9,25.2,0,24,3,1.60312499E9,30.4,1,17,3,1.60424998E9,37.4,1,8,3,1.60537498E9,20.7,0,59,5,1.56109798E9,32.8,0,44,5,1.56109798E9,26.5,1,40,5,1.56109798E9,24.7,0,38,5,1.56109798E9,32.2,1,35,5,1.56109798E9,34.0,1,34,5,1.56109798E9,30.6,1,22,5,1.56109798E9,26.3,1,21,5,1.56109798E9,31.7,1,19,5,1.56109798E9,31.4,1,13,5,1.56109798E9,21.2,0,12,5,1.56109798E9,32.5,1,8,5,1.56109798E9,25.1,1,7,5,1.56109798E9,25.7,1,1,5,1.56109798E9,34.8,0,3,6,1.57542003E9,33.0,0,5,6,1.57542003E9,29.0,1,9,6,1.57542003E9,28.2,1,15,6,1.57542003E9,35.3,1,18,6,1.57542003E9,31.4,1,27,6,1.57542003E9,23.9,0,30,6,1.57542003E9,34.5,1,6,1,1.17645005E9,24.2,0,9,1,1.17645005E9,22.5,0,194,4,1.17645005E9,27.0,0,195,4,1.17645005E9,28.5,0,196,4,1.17645005E9,27.5,0,5,6,1.17645005E9,22.3,0,15,6,1.17645005E9,18.6,0,18,6,1.17645005E9,31.6,0,27,6,1.17645005E9,22.2,0,34,6,1.17645005E9,29.2,0,19,5,1.17645005E9,23.2,0,21,5,1.17645005E9,28.4,0,22,5,1.17645005E9,29.9,0,34,5,1.17645005E9,24.6,0,38,5,1.17645005E9,20.2,0,44,5,1.17645005E9,20.4,0,19,5,1.57542003E9,27.4,1,21,5,1.57542003E9,30.8,1,22,5,1.57542003E9,37.5,1,34,5,1.57542003E9,25.8,0,35,5,1.57542003E9,28.9,1,38,5,1.57542003E9,34.4,1,40,5,1.57542003E9,36.1,1,44,5,1.57542003E9,27.8,1
$GPGSV,3,1,09,04,28,064,30,06,64,347,39,09,41,106,28,11,41,295,30,1*67
$GPGSV,3,2,09,12,23,303,26,17,47,137,32,19,76,132,38,20,29,239,25,1*6F
$GPGSV,3,3,09,22,18,195,30,1*5A
$GPGSV,1,1,02,06,64,347,24,09,41,106,23,8*67
$GLGSV,2,1,07,02,45,163,27,16,11,324,28,15,19,272,34,01,59,070,25,1*77
$GLGSV,2,2,07,24,54,055,30,17,40,326,37,08,13,027,21,1*46
$GAGSV,2,1,07,03,23,153,33,05,35,095,29,09,14,043,28,15,46,298,35,7*74
$GAGSV,2,2,07,18,67,148,31,27,34,289,24,30,37,224,35,7*41
$GAGSV,2,1,05,05,35,095,22,15,46,298,19,18,67,148,32,27,34,289,22,1*74
$GAGSV,2,2,05,34,59,035,29,1*46
$GQGSV,1,1,03,02,36,178,36,03,78,073,30,04,51,152,37,1*53
$GQGSV,1,1,03,02,36,178,27,03,78,073,29,04,51,152,28,8*5C
$GBGSV,4,1,14,59,44,159,33,44,77,012,27,40,80,159,25,38,61,238,32,1*73
$GBGSV,4,2,14,35,41,106,34,34,28,307,31,22,67,108,26,21,35,190,32,1*7D
$GBGSV,4,3,14,19,27,044,31,13,37,232,21,12,55,323,33,08,51,234,25,1*72
$GBGSV,4,4,14,07,75,232,26,01,44,152,35,1*70
$GBGSV,2,1,08,19,27,044,27,21,35,190,31,22,67,108,38,34,28,307,26,3*76
$GBGSV,2,2,08,35,41,106,29,38,61,238,34,40,80,159,36,44,77,012,28,3*7C
$GBGSV,2,1,06,19,27,044,23,21,35,190,28,22,67,108,30,34,28,307,25,5*79
$GBGSV,2,2,06,38,61,238,20,44,77,012,20,5*72
$GNGSA,A,3,04,06,09,11,12,17,19,,,,,,0.8,0.5,0.6,1*3C
$GNGSA,A,3,72,79,80,81,88,,,,,,,,0.8,0.5,0.6,2*33
$GNGSA,A,3,05,09,15,18,27,30,,,,,,,0.8,0.5,0.6,3*3F
$GNGSA,A,3,07,08,12,13,19,21,22,34,35,38,40,44,0.8,0.5,0.6,4*34
$PSSGR,GSA,A,3,219,222,234,238,244,,,,,,,,0.8,0.5,0.6,4,5*70
$GNVTG,279.3,T,288.3,M,29.9,N,55.4,K,A*35
$GNDTM,W84,,0000.000000,N,00000.000000,E,0.000,W84*41
$GNRMC,042709.00,A,3714.709854,N,12702.397667,E,29.9,279.3,270525,9.0,W,A,V*72
$GNGNS,042709.00,3714.709854,N,12702.397667,E,AAAANN,31,0.5,14.1,23.2,,,V*10
$GNGGA,042709.00,3714.709854,N,12702.397667,E,1,12,0.5,14.1,M,23.2,M,,*41
$PSMSG,Mag=F,Gyro=UN,bluesky=0*00
AccInfo:	1748320029000	:	5.2489505	Speed:	55.44
BatteryTemperature:	25.8
#location,042709,37.24516424,127.03996112,15.4,279.3,270525,gps,5.2489505,4.1317964,0.9854464,7.839831,
AccInfo:	1748320029020	:	5.743	Speed:	55.44
BatteryTemperature:	25.8
#location,042709,37.245164,127.0399553,15.40035,278.95816,270525,fused,5.743,4.1317964,0.9854464,11.880997,
#GnssStatus,72,43,4,1,1.57542003E9,30.5,1,6,1,1.57542003E9,38.3,1,9,1,1.57542003E9,25.4,1,11,1,1.57542003E9,31.7,1,12,1,1.57542003E9,30.4,1,17,1,1.57542003E9,30.5,1,19,1,1.57542003E9,34.9,1,20,1,1.57542003E9,24.8,0,22,1,1.57542003E9,26.8,0,194,4,1.57542003E9,35.5,0,195,4,1.57542003E9,29.1,0,196,4,1.57542003E9,39.2,0,2,3,1.59975002E9,26.8,0,16,3,1.60143744E9,24.0,1,15,3,1.602E9,34.4,1,1,3,1.60256256E9,24.3,0,24,3,1.60312499E9,29.7,1,17,3,1.60424998E9,38.4,1,8,3,1.60537498E9,20.7,1,60,5,1.56109798E9,28.9,0,59,5,1.56109798E9,35.0,1,44,5,1.56109798E9,24.6,1,40,5,1.56109798E9,27.2,0,38,5,1.56109798E9,31.6,1,35,5,1.56109798E9,32.5,1,34,5,1.56109798E9,29.6,1,22,5,1.56109798E9,24.9,1,21,5,1.56109798E9,32.7,1,19,5,1.56109798E9,32.0,1,13,5,1.56109798E9,26.2,1,12,5,1.56109798E9,30.9,1,8,5,1.56109798E9,25.0,1,7,5,1.56109798E9,28.8,1,4,5,1.56109798E9,26.4,0,2,5,1.56109798E9,30.8,0,1,5,1.56109798E9,34.3,0,3,6,1.57542003E9,33.1,0,5,6,1.57542003E9,25.9,1,9,6,1.57542003E9,25.8,1,15,6,1.57542003E9,35.3,1,18,6,1.57542003E9,32.4,1,27,6,1.57542003E9,25.9,1,30,6,1.57542003E9,35.9,1,34,6,1.57542003E9,33.4,0,36,6,1.57542003E9,24.2,0,4,1,1.17645005E9,18.6,0,6,1,1.17645005E9,23.9,0,9,1,1.17645005E9,22.5,0,194,4,1.17645005E9,26.2,0,195,4,1.17645005E9,28.9,0,196,4,1.17645005E9,28.8,0,3,6,1.17645005E9,18.9,0,5,6,1.17645005E9,26.0,0,15,6,1.17645005E9,18.6,0,18,6,1.17645005E9,31.8,0,27,6,1.17645005E9,23.6,0,34,6,1.17645005E9,29.4,0,19,5,1.17645005E9,23.2,1,21,5,1.17645005E9,27.6,0,22,5,1.17645005E9,27.9,1,34,5,1.17645005E9,24.0,1,38,5,1.17645005E9,25.1,1,40,5,1.17645005E9,18.9,0,44,5,1.17645005E9,20.4,1,19,5,1.57542003E9,28.7,1,21,5,1.57542003E9,22.4,1,22,5,1.57542003E9,37.1,1,34,5,1.57542003E9,26.2,1,35,5,1.57542003E9,26.0,1,38,5,1.57542003E9,34.1,1,40,5,1.57542003E9,35.8,1,44,5,1.57542003E9,25.7,1
$GPGSV,3,1,09,04,28,064,31,06,64,347,38,09,41,106,25,11,41,295,32,1*68
$GPGSV,3,2,09,12,23,303,30,17,47,137,31,19,76,132,35,20,29,239,25,1*66
$GPGSV,3,3,09,22,18,195,27,1*5C
$GPGSV,1,1,03,04,28,064,19,06,64,347,24,09,41,106,23,8*52
$GLGSV,2,1,07,02,45,163,27,16,11,324,24,15,19,272,34,01,59,070,24,1*7A
$GLGSV,2,2,07,24,54,055,30,17,40,326,38,08,13,027,21,1*49
$GAGSV,3,1,09,03,23,153,33,05,35,095,26,09,14,043,26,15,46,298,35,7*7A
$GAGSV,3,2,09,18,67,148,32,27,34,289,26,30,37,224,36,34,59,035,33,7*71
$GAGSV,3,3,09,36,16,076,24,7*4F
$GAGSV,2,1,06,03,23,153,19,05,35,095,26,15,46,298,19,18,67,148,32,1*7F
$GAGSV,2,2,06,27,34,289,24,34,59,035,29,1*72
$GQGSV,1,1,03,02,36,178,36,03,78,073,29,04,51,152,39,1*55
$GQGSV,1,1,03,02,36,178,26,03,78,073,29,04,51,152,29,8*5C
$GBGSV,5,1,17,60,25,240,29,59,44,159,35,44,77,012,25,40,80,159,27,1*7F
$GBGSV,5,2,17,38,61,238,32,35,41,106,33,34,28,307,30,22,67,108,25,1*72
$GBGSV,5,3,17,21,35,190,33,19,27,044,32,13,37,232,26,12,55,323,31,1*75
$GBGSV,5,4,17,08,51,234,25,07,75,232,29,04,36,132,26,02,26,235,31,1*77
$GBGSV,5,5,17,01,44,152,34,1*40
$GBGSV,2,1,08,19,27,044,29,21,35,190,22,22,67,108,37,34,28,307,26,3*75
$GBGSV,2,2,08,35,41,106,26,38,61,238,34,40,80,159,36,44,77,012,26,3*7D
$GBGSV,2,1,07,19,27,044,23,21,35,190,28,22,67,108,28,34,28,307,24,5*70
$GBGSV,2,2,07,38,61,238,25,40,80,159,19,44,77,012,20,5*4F
$GNGSA,A,3,04,06,09,11,12,17,19,22,,,,,0.7,0.4,0.6,1*32
AccInfo:	1748320030000	:	4.430907	Speed:	53.75
BatteryTemperature:	25.8
#location,042710,37.2452008,127.03981023,14.93,280.4,270525,gps,4.430907,3.488525,0.97978073,6.714922,
$GNGSA,A,3,72,79,80,81,88,,,,,,,,0.7,0.4,0.6,2*3D
$GNGSA,A,3,03,05,09,15,18,27,30,34,36,,,,0.7,0.4,0.6,3*30
$GNGSA,A,3,04,07,08,12,13,19,21,22,34,35,38,40,0.7,0.4,0.6,4*3E
$PSSGR,GSA,A,3,219,221,222,234,238,240,244,,,,,,0.7,0.4,0.6,4,5*79
$GNVTG,280.4,T,289.4,M,29.0,N,53.7,K,A*3E
$GNDTM,W84,,0000.000000,N,00000.000000,E,0.000,W84*41
$GNRMC,042710.00,A,3714.712048,N,12702.388614,E,29.0,280.4,270525,9.0,W,A,V*77
$GNGNS,042710.00,3714.712048,N,12702.388614,E,AAAANN,36,0.4,16.5,23.2,,,V*1D
$GNGGA,042710.00,3714.712048,N,12702.388614,E,1,12,0.4,16.5,M,23.2,M,,*4B
$PSMSG,Mag=F,Gyro=UN,bluesky=0*00
AccInfo:	1748320030019	:	5.305	Speed:	53.77
BatteryTemperature:	25.8
#location,042710,37.2451985,127.0398061,14.937315,279.98584,270525,fused,5.305,3.488525,0.97978073,9.356541,
#GnssStatus,79,50,4,1,1.57542003E9,28.7,1,6,1,1.57542003E9,36.9,1,9,1,1.57542003E9,27.4,1,11,1,1.57542003E9,32.3,1,12,1,1.57542003E9,29.8,1,17,1,1.57542003E9,29.4,1,19,1,1.57542003E9,31.7,1,20,1,1.57542003E9,24.4,0,22,1,1.57542003E9,27.9,1,194,4,1.57542003E9,31.9,0,195,4,1.57542003E9,29.7,0,196,4,1.57542003E9,39.7,0,2,3,1.59975002E9,27.4,0,16,3,1.60143744E9,24.0,1,15,3,1.602E9,34.3,1,1,3,1.60256256E9,26.2,0,24,3,1.60312499E9,27.8,1,17,3,1.60424998E9,38.6,1,8,3,1.60537498E9,25.0,1,60,5,1.56109798E9,28.9,0,59,5,1.56109798E9,34.9,1,44,5,1.56109798E9,26.1,1,40,5,1.56109798E9,28.9,0,38,5,1.56109798E9,31.4,1,35,5,1.56109798E9,30.6,1,34,5,1.56109798E9,27.1,1,25,5,1.56109798E9,20.2,0,24,5,1.56109798E9,20.8,0,22,5,1.56109798E9,24.1,1,21,5,1.56109798E9,31.8,1,19,5,1.56109798E9,31.5,1,13,5,1.56109798E9,30.0,1,12,5,1.56109798E9,30.1,1,10,5,1.56109798E9,23.0,0,8,5,1.56109798E9,27.1,1,7,5,1.56109798E9,29.2,1,5,5,1.56109798E9,24.5,0,4,5,1.56109798E9,26.4,1,2,5,1.56109798E9,30.8,0,1,5,1.56109798E9,32.3,0,3,6,1.57542003E9,32.9,1,5,6,1.57542003E9,22.1,1,9,6,1.57542003E9,26.0,1,15,6,1.57542003E9,34.6,1,18,6,1.57542003E9,33.0,1,27,6,1.57542003E9,25.6,1,30,6,1.57542003E9,35.2,1,34,6,1.57542003E9,34.5,1,36,6,1.57542003E9,26.6,1,4,1,1.17645005E9,18.6,0,6,1,1.17645005E9,26.5,0,9,1,1.17645005E9,22.5,0,194,4,1.17645005E9,26.7,0,195,4,1.17645005E9,29.4,0,196,4,1.17645005E9,30.0,0,3,6,1.17645005E9,18.9,0,5,6,1.17645005E9,26.4,0,15,6,1.17645005E9,18.6,0,18,6,1.17645005E9,32.2,0,27,6,1.17645005E9,23.3,0,30,6,1.17645005E9,21.1,0,34,6,1.17645005E9,29.9,0,19,5,1.17645005E9,20.9,1,21,5,1.17645005E9,24.6,1,22,5,1.17645005E9,27.9,1,34,5,1.17645005E9,21.8,1,38,5,1.17645005E9,28.1,1,40,5,1.17645005E9,23.3,1,44,5,1.17645005E9,20.4,1,19,5,1.57542003E9,30.9,1,21,5,1.57542003E9,27.1,1,22,5,1.57542003E9,36.3,1,24,5,1.57542003E9,17.4,0,25,5,1.57542003E9,19.0,0,34,5,1.57542003E9,24.7,1,35,5,1.57542003E9,26.9,1,38,5,1.57542003E9,34.1,1,40,5,1.57542003E9,35.7,1,44,5,1.57542003E9,26.5,1
$GPGSV,3,1,09,04,28,064,29,06,64,347,37,09,41,106,27,11,41,295,32,1*6C
$GPGSV,3,2,09,12,23,303,30,17,47,137,29,19,76,132,32,20,29,239,24,1*69
$GPGSV,3,3,09,22,18,195,28,1*53
$GPGSV,1,1,03,04,28,064,19,06,64,347,27,09,41,106,23,8*51
$GLGSV,2,1,07,02,45,163,27,16,11,324,24,15,19,272,34,01,59,070,26,1*78
$GLGSV,2,2,07,24,54,055,28,17,40,326,39,08,13,027,25,1*45
$GAGSV,3,1,09,03,23,153,33,05,35,095,22,09,14,043,26,15,46,298,35,7*7E
$GAGSV,3,2,09,18,67,148,33,27,34,289,26,30,37,224,35,34,59,035,35,7*75
$GAGSV,3,3,09,36,16,076,27,7*4C
$GAGSV,2,1,07,03,23,153,19,05,35,095,26,15,46,298,19,18,67,148,32,1*7E
$GAGSV,2,2,07,27,34,289,23,30,37,224,21,34,59,035,30,1*4C
$GQGSV,1,1,03,02,36,178,32,03,78,073,30,04,51,152,40,1*57
$GQGSV,1,1,03,02,36,178,27,03,78,073,29,04,51,152,30,8*55
$GBGSV,6,1,21,60,25,240,29,59,44,159,35,44,77,012,26,40,80,159,29,1*74
$GBGSV,6,2,21,38,61,238,31,35,41,106,31,34,28,307,27,25,05,291,20,1*76
$GBGSV,6,3,21,24,06,241,21,22,67,108,24,21,35,190,32,19,27,044,32,1*7A
$GBGSV,6,4,21,13,37,232,30,12,55,323,30,10,68,274,23,08,51,234,27,1*70
$GBGSV,6,5,21,07,75,232,29,05,07,255,25,04,36,132,26,02,26,235,31,1*79
$GBGSV,6,6,21,01,44,152,32,1*43
$GBGSV,3,1,10,19,27,044,31,21,35,190,27,22,67,108,36,24,06,241,17,3*7C
$GBGSV,3,2,10,25,05,291,19,34,28,307,25,35,41,106,27,38,61,238,34,3*79
$GBGSV,3,3,10,40,80,159,36,44,77,012,27,3*77
$GBGSV,2,1,07,19,27,044,21,21,35,190,25,22,67,108,28,34,28,307,22,5*79
$GBGSV,2,2,07,38,61,238,28,40,80,159,23,44,77,012,20,5*4B
$GNGSA,A,3,04,06,09,11,12,17,19,20,22,,,,0.6,0.4,0.5,1*32
$GNGSA,A,3,66,72,79,80,81,88,,,,,,,0.6,0.4,0.5,2*3F
$GNGSA,A,3,03,05,09,15,18,27,30,34,36,,,,0.6,0.4,0.5,3*32
$GNGSA,A,3,04,05,07,08,10,12,13,19,21,22,25,34,0.6,0.4,0.5,4*36
AccInfo:	1748320031000	:	4.0529966	Speed:	50.80
BatteryTemperature:	25.8
#location,042711,37.24521737,127.03965106,14.11,282.2,270525,gps,4.0529966,0.15285404,0.033612583,6.0268135,
$PSSGR,GSA,A,3,219,221,222,234,238,240,244,,,,,,0.6,0.4,0.5,4,5*7B
$GNVTG,282.2,T,291.2,M,27.4,N,50.8,K,A*33
$GNDTM,W84,,0000.000000,N,00000.000000,E,0.000,W84*41
$GNRMC,042711.00,A,3714.713042,N,12702.379064,E,27.4,282.2,270525,9.0,W,A,V*7C
$GNGNS,042711.00,3714.713042,N,12702.379064,E,AAAANN,41,0.4,18.2,23.2,,,V*11
$GNGGA,042711.00,3714.713042,N,12702.379064,E,1,12,0.4,18.2,M,23.2,M,,*47
$PSMSG,Mag=F,Gyro=UN,bluesky=0*00
AccInfo:	1748320031019	:	4.992	Speed:	50.80
BatteryTemperature:	25.8
#location,042711,37.2452181,127.0396494,14.110015,281.99994,270525,fused,4.992,0.15285404,0.033612583,11.1538315,
$BDMSG,JAMMER_MSG,0/0/0/0/0,PASS*00
#GnssStatus,64,46,4,1,1.57542003E9,24.1,1,6,1,1.57542003E9,29.5,1,9,1,1.57542003E9,29.3,1,11,1,1.57542003E9,32.7,1,12,1,1.57542003E9,34.1,1,17,1,1.57542003E9,30.9,1,19,1,1.57542003E9,29.3,1,20,1,1.57542003E9,33.6,1,22,1,1.57542003E9,33.7,1,194,4,1.57542003E9,31.8,0,195,4,1.57542003E9,31.0,0,196,4,1.57542003E9,38.9,0,2,3,1.59975002E9,30.9,1,15,3,1.602E9,33.7,1,1,3,1.60256256E9,27.3,0,24,3,1.60312499E9,29.8,1,17,3,1.60424998E9,40.5,1,8,3,1.60537498E9,30.5,1,60,5,1.56109798E9,33.4,0,59,5,1.56109798E9,35.8,1,44,5,1.56109798E9,26.8,1,40,5,1.56109798E9,30.6,0,38,5,1.56109798E9,32.0,1,35,5,1.56109798E9,29.6,1,34,5,1.56109798E9,32.3,1,25,5,1.56109798E9,26.6,1,22,5,1.56109798E9,28.0,1,21,5,1.56109798E9,25.5,1,13,5,1.56109798E9,28.6,1,10,5,1.56109798E9,30.3,1,8,5,1.56109798E9,33.2,1,7,5,1.56109798E9,30.2,1,3,5,1.56109798E9,29.0,0,1,5,1.56109798E9,31.3,0,3,6,1.57542003E9,33.0,1,5,6,1.57542003E9,24.9,1,15,6,1.57542003E9,33.1,1,18,6,1.57542003E9,31.8,1,27,6,1.57542003E9,27.4,1,30,6,1.57542003E9,31.8,1,34,6,1.57542003E9,35.4,1,36,6,1.57542003E9,24.8,1,6,1,1.17645005E9,28.1,0,11,1,1.17645005E9,25.6,0,195,4,1.17645005E9,29.1,0,196,4,1.17645005E9,27.7,0,5,6,1.17645005E9,25.2,0,15,6,1.17645005E9,22.9,0,18,6,1.17645005E9,31.6,0,30,6,1.17645005E9,27.0,0,34,6,1.17645005E9,27.9,0,21,5,1.17645005E9,24.0,1,22,5,1.17645005E9,26.1,1,34,5,1.17645005E9,24.4,1,38,5,1.17645005E9,30.9,1,40,5,1.17645005E9,22.2,1,21,5,1.57542003E9,36.3,1,22,5,1.57542003E9,35.3,1,25,5,1.57542003E9,23.4,0,34,5,1.57542003E9,32.9,1,35,5,1.57542003E9,28.7,1,38,5,1.57542003E9,33.9,1,40,5,1.57542003E9,35.4,1,44,5,1.57542003E9,28.8,1
$GPGSV,3,1,09,04,28,064,24,06,64,348,30,09,41,106,29,11,41,295,33,1*66
$GPGSV,3,2,09,12,23,303,34,17,47,137,31,19,76,132,29,20,29,239,34,1*6F
$GPGSV,3,3,09,22,18,195,34,1*5E
$GPGSV,1,1,02,06,64,348,28,11,41,295,26,8*61
$GLGSV,2,1,06,02,45,163,31,15,19,272,34,01,59,069,27,24,54,055,30,1*77
$GLGSV,2,2,06,17,40,326,41,08,13,027,31,1*73
$GAGSV,2,1,08,03,23,153,33,05,35,095,25,15,46,298,33,18,67,148,32,7*74
$GAGSV,2,2,08,27,34,289,27,30,37,224,32,34,59,035,35,36,16,076,25,7*72
$GAGSV,2,1,05,05,35,095,25,15,46,298,23,18,67,148,32,30,37,224,27,1*7D
$GAGSV,2,2,05,34,59,035,28,1*47
$GQGSV,1,1,03,02,36,178,32,03,78,073,31,04,51,152,39,1*58
$GQGSV,1,1,02,03,78,073,29,04,51,152,28,8*61
$GBGSV,4,1,16,60,25,240,33,59,44,159,36,44,77,012,27,40,80,159,31,1*72
$GBGSV,4,2,16,38,61,238,32,35,41,106,30,34,28,307,32,25,05,291,27,1*71
$GBGSV,4,3,16,22,67,108,28,21,35,190,26,13,37,232,29,10,68,274,30,1*7E
$GBGSV,4,4,16,08,51,234,33,07,75,232,30,03,43,206,29,01,44,152,31,1*73
$GBGSV,2,1,08,21,35,190,36,22,67,108,35,25,05,291,23,34,28,307,33,3*79
$GBGSV,2,2,08,35,41,106,29,38,61,238,34,40,80,159,35,44,77,012,29,3*7E
$GBGSV,2,1,05,21,35,190,24,22,67,108,26,34,28,307,24,38,61,238,31,5*7B
$GBGSV,2,2,05,40,80,159,22,5*46
$GNGSA,A,3,04,06,09,11,12,17,19,20,22,,,,0.6,0.4,0.5,1*32
$GNGSA,A,3,66,72,79,80,81,88,,,,,,,0.6,0.4,0.5,2*3F
$GNGSA,A,3,03,05,09,15,18,27,30,34,36,,,,0.6,0.4,0.5,3*32
$GNGSA,A,3,07,08,10,12,13,19,21,22,25,34,35,38,0.6,0.4,0.5,4*3A
AccInfo:	1748320031962	:	3.7900925	Speed:	48.71
BatteryTemperature:	25.8
#location,042711,37.24524044,127.03951029,13.53,283.2,270525,gps,3.7900925,1.0463836,0.24906148,5.2674117,
$PSSGR,GSA,A,3,219,221,222,234,238,240,244,,,,,,0.6,0.4,0.5,4,5*7B
$GNVTG,283.2,T,292.2,M,26.3,N,48.7,K,A*31
$GNDTM,W84,,0000.000000,N,00000.000000,E,0.000,W84*41
$GNRMC,042711.96,A,3714.714426,N,12702.370617,E,26.3,283.2,270525,9.0,W,A,V*7E
$GNGNS,042711.96,3714.714426,N,12702.370617,E,AAAANN,40,0.4,18.3,23.2,,,V*14
$GNGGA,042711.96,3714.714426,N,12702.370617,E,1,12,0.4,18.3,M,23.2,M,,*43
$PSMSG,Mag=F,Gyro=UN,bluesky=0*00
AccInfo:	1748320032480	:	4.752	Speed:	48.71
BatteryTemperature:	25.8
#location,042712,37.2452423,127.0394997,13.530436,282.9992,270525,fused,4.752,1.0463836,0.24906148,9.851165,
$GNGSA,A,3,04,06,09,11,12,17,19,20,22,,,,0.6,0.4,0.5,1*32
AccInfo:	1748320033000	:	3.7900925	Speed:	47.77
BatteryTemperature:	25.8
#location,042713,37.24526898,127.03936096,13.27,284.1,270525,gps,3.7900925,4.3764443,1.1190684,5.2892056,
$PSSGR,GSA,A,3,06,,,,,,,,,,,,0.6,0.4,0.5,1,8*44
$GNGSA,A,3,66,72,79,80,81,88,,,,,,,0.6,0.4,0.5,2*3F
$GNGSA,A,3,03,05,09,15,18,27,30,34,36,,,,0.6,0.4,0.5,3*32
$GNGSA,A,3,07,08,10,12,13,19,21,22,25,34,35,38,0.6,0.4,0.5,4*3A
$PSSGR,GSA,A,3,219,221,222,234,238,240,244,,,,,,0.6,0.4,0.5,4,5*7B
$GNVTG,284.1,T,293.1,M,25.8,N,47.8,K,A*3F
$GNDTM,W84,,0000.000000,N,00000.000000,E,0.000,W84*41
$GNRMC,042713.00,A,3714.716139,N,12702.361658,E,25.8,284.1,270525,9.0,W,A,V*7D
$GNGNS,042713.00,3714.716139,N,12702.361658,E,AAAANN,40,0.4,18.2,23.2,,,V*1A
$GNGGA,042713.00,3714.716139,N,12702.361658,E,1,12,0.4,18.2,M,23.2,M,,*4D
$PSMSG,Mag=F,Gyro=UN,bluesky=0*00
AccInfo:	1748320033021	:	4.262	Speed:	47.81
BatteryTemperature:	25.8
#location,042713,37.2452662,127.0393745,13.28049,283.96436,270525,fused,4.262,4.3764443,1.1190684,11.1565,
#GnssStatus,75,55,4,1,1.57542003E9,27.2,1,6,1,1.57542003E9,24.8,1,9,1,1.57542003E9,30.3,1,11,1,1.57542003E9,30.5,1,12,1,1.57542003E9,35.0,1,17,1,1.57542003E9,30.7,1,19,1,1.57542003E9,30.4,1,20,1,1.57542003E9,34.1,1,22,1,1.57542003E9,33.5,1,194,4,1.57542003E9,35.6,0,195,4,1.57542003E9,30.1,0,196,4,1.57542003E9,34.8,0,2,3,1.59975002E9,33.6,1,15,3,1.602E9,31.3,1,1,3,1.60256256E9,30.7,0,24,3,1.60312499E9,34.5,1,17,3,1.60424998E9,39.9,1,8,3,1.60537498E9,31.5,1,60,5,1.56109798E9,35.4,1,59,5,1.56109798E9,35.9,1,44,5,1.56109798E9,24.7,1,40,5,1.56109798E9,32.4,1,38,5,1.56109798E9,34.0,1,35,5,1.56109798E9,24.8,1,34,5,1.56109798E9,32.8,1,25,5,1.56109798E9,23.0,1,22,5,1.56109798E9,30.0,1,21,5,1.56109798E9,26.1,1,19,5,1.56109798E9,23.4,1,13,5,1.56109798E9,26.2,1,12,5,1.56109798E9,27.5,1,10,5,1.56109798E9,32.0,1,8,5,1.56109798E9,36.2,1,7,5,1.56109798E9,29.7,1,5,5,1.56109798E9,26.0,0,4,5,1.56109798E9,26.1,0,3,5,1.56109798E9,29.7,0,2,5,1.56109798E9,31.2,0,1,5,1.56109798E9,32.6,0,3,6,1.57542003E9,32.7,1,5,6,1.57542003E9,26.9,1,9,6,1.57542003E9,22.8,1,15,6,1.57542003E9,29.4,1,18,6,1.57542003E9,29.3,1,27,6,1.57542003E9,23.7,1,30,6,1.57542003E9,30.5,1,34,6,1.57542003E9,35.3,1,36,6,1.57542003E9,21.0,1,6,1,1.17645005E9,31.3,1,11,1,1.17645005E9,21.5,0,194,4,1.17645005E9,25.5,0,195,4,1.17645005E9,29.9,0,196,4,1.17645005E9,22.1,0,5,6,1.17645005E9,25.5,0,9,6,1.17645005E9,21.6,0,15,6,1.17645005E9,24.2,0,18,6,1.17645005E9,30.2,0,27,6,1.17645005E9,22.3,0,30,6,1.17645005E9,24.8,0,34,6,1.17645005E9,27.1,0,21,5,1.17645005E9,26.8,1,22,5,1.17645005E9,26.8,1,34,5,1.17645005E9,25.6,1,38,5,1.17645005E9,30.2,1,40,5,1.17645005E9,25.1,1,44,5,1.17645005E9,18.7,1,19,5,1.57542003E9,21.5,1,21,5,1.57542003E9,35.5,1,22,5,1.57542003E9,34.6,1,25,5,1.57542003E9,23.9,1,34,5,1.57542003E9,33.3,1,35,5,1.57542003E9,28.5,1,38,5,1.57542003E9,34.2,1,40,5,1.57542003E9,34.9,1,44,5,1.57542003E9,29.9,1
$GPGSV,3,1,09,04,28,064,27,06,64,348,25,09,41,106,30,11,41,295,31,1*6B
$GPGSV,3,2,09,12,23,303,35,17,47,137,31,19,76,132,30,20,29,239,34,1*66
$GPGSV,3,3,09,22,18,195,34,1*5E
$GPGSV,1,1,02,06,64,348,31,11,41,295,22,8*6D
$GLGSV,2,1,06,02,45,163,34,15,19,272,31,01,59,069,31,24,54,055,35,1*75
$GLGSV,2,2,06,17,40,326,40,08,13,027,32,1*71
$GAGSV,3,1,09,03,23,153,33,05,35,095,27,09,14,043,23,15,46,298,29,7*73
$GAGSV,3,2,09,18,67,148,29,27,34,289,24,30,37,224,31,34,59,035,35,7*78
$GAGSV,3,3,09,36,16,076,21,7*4A
$GAGSV,2,1,07,05,35,095,26,09,14,043,22,15,46,298,24,18,67,148,30,1*74
$GAGSV,2,2,07,27,34,289,22,30,37,224,25,34,59,035,27,1*4F
$GQGSV,1,1,03,02,36,178,36,03,78,073,30,04,51,152,35,1*51
$GQGSV,1,1,03,02,36,178,26,03,78,073,30,04,51,152,22,8*5F
$GBGSV,6,1,21,60,25,240,35,59,44,159,36,44,77,012,25,40,80,159,32,1*73
$GBGSV,6,2,21,38,61,238,34,35,41,106,25,34,28,307,33,25,05,291,23,1*70
$GBGSV,6,3,21,22,67,108,30,21,35,190,26,19,27,044,23,13,37,232,26,1*7F
$GBGSV,6,4,21,12,55,323,28,10,68,274,32,08,51,234,36,07,75,232,30,1*7A
$GBGSV,6,5,21,05,07,255,26,04,36,132,26,03,43,206,30,02,26,235,31,1*74
$GBGSV,6,6,21,01,44,152,33,1*42
$GBGSV,3,1,09,19,27,044,22,21,35,190,36,22,67,108,35,25,05,291,24,3*7A
$GBGSV,3,2,09,34,28,307,33,35,41,106,29,38,61,238,34,40,80,159,35,3*7F
$GBGSV,3,3,09,44,77,012,30,3*4D
$GBGSV,2,1,06,21,35,190,27,22,67,108,27,34,28,307,26,38,61,238,30,5*79
$GBGSV,2,2,06,40,80,159,25,44,77,012,19,5*79
$GNGSA,A,3,04,06,09,11,12,17,19,20,22,,,,0.6,0.4,0.5,1*32
$PSSGR,GSA,A,3,06,11,,,,,,,,,,,0.6,0.4,0.5,1,8*44
$GNGSA,A,3,66,72,79,80,81,88,,,,,,,0.6,0.4,0.5,2*3F
$GNGSA,A,3,03,05,09,15,18,27,30,34,36,,,,0.6,0.4,0.5,3*32
$GNGSA,A,3,02,04,05,07,08,10,12,13,19,21,22,25,0.6,0.4,0.5,4*33
$PSSGR,GSA,A,3,219,221,222,234,238,240,244,,,,,,0.6,0.4,0.5,4,5*7B
$GNVTG,285.8,T,294.8,M,22.8,N,42.2,K,A*31
$GNDTM,W84,,0000.000000,N,00000.000000,E,0.000,W84*41
$GNRMC,042714.00,A,3714.718207,N,12702.354028,E,22.8,285.8,270525,9.0,W,A,V*72
AccInfo:	1748320034000	:	3.7900925	Speed:	42.16
BatteryTemperature:	25.8
#location,042714,37.24530345,127.0392338,11.71,285.8,270525,gps,3.7900925,1.94135,0.3529805,4.804324,
$GNGNS,042714.00,3714.718207,N,12702.354028,E,AAAANN,43,0.4,19.3,23.2,,,V*19
$GNGGA,042714.00,3714.718207,N,12702.354028,E,1,12,0.4,19.3,M,23.2,M,,*4D
$PSMSG,Mag=F,Gyro=UN,bluesky=0*00
AccInfo:	1748320034020	:	3.97	Speed:	42.17
BatteryTemperature:	25.8
#location,042714,37.2453022,127.0392331,11.713475,284.99802,270525,fused,3.97,1.94135,0.3529805,12.229431,
$BDMSG,JAMMER_MSG,0/0/0/0/0,PASS*00
#GnssStatus,60,46,4,1,1.57542003E9,25.7,1,6,1,1.57542003E9,26.4,1,9,1,1.57542003E9,29.2,1,11,1,1.57542003E9,31.6,1,12,1,1.57542003E9,33.7,1,17,1,1.57542003E9,30.3,1,19,1,1.57542003E9,32.9,1,20,1,1.57542003E9,33.9,1,22,1,1.57542003E9,26.3,1,194,4,1.57542003E9,32.4,0,195,4,1.57542003E9,31.4,0,196,4,1.57542003E9,27.2,0,2,3,1.59975002E9,32.9,1,15,3,1.602E9,28.6,1,1,3,1.60256256E9,29.9,0,24,3,1.60312499E9,36.0,1,17,3,1.60424998E9,37.6,1,60,5,1.56109798E9,37.2,1,59,5,1.56109798E9,35.6,1,44,5,1.56109798E9,26.5,1,40,5,1.56109798E9,32.3,1,38,5,1.56109798E9,35.6,1,34,5,1.56109798E9,32.2,1,25,5,1.56109798E9,30.5,1,22,5,1.56109798E9,33.1,1,21,5,1.56109798E9,31.7,1,13,5,1.56109798E9,24.7,1,12,5,1.56109798E9,28.8,1,10,5,1.56109798E9,32.1,1,8,5,1.56109798E9,37.0,1,7,5,1.56109798E9,28.1,1,3,5,1.56109798E9,32.4,0,1,5,1.56109798E9,36.3,0,3,6,1.57542003E9,33.7,1,5,6,1.57542003E9,29.4,1,15,6,1.57542003E9,24.9,1,18,6,1.57542003E9,27.8,1,27,6,1.57542003E9,26.5,1,30,6,1.57542003E9,27.9,1,4,1,1.17645005E9,22.3,0,6,1,1.17645005E9,31.8,1,11,1,1.17645005E9,25.5,1,194,4,1.17645005E9,27.1,0,195,4,1.17645005E9,29.3,0,5,6,1.17645005E9,24.5,0,15,6,1.17645005E9,24.5,0,18,6,1.17645005E9,29.5,0,30,6,1.17645005E9,25.3,0,34,6,1.17645005E9,24.6,0,21,5,1.17645005E9,26.7,1,22,5,1.17645005E9,26.7,1,19,5,1.57542003E9,21.8,1,21,5,1.57542003E9,31.2,1,22,5,1.57542003E9,32.9,1,25,5,1.57542003E9,29.0,1,34,5,1.57542003E9,32.2,1,35,5,1.57542003E9,27.7,1,38,5,1.57542003E9,33.6,1,40,5,1.57542003E9,35.4,1,44,5,1.57542003E9,29.6,1
$GPGSV,3,1,09,04,28,064,26,06,64,348,26,09,41,106,29,11,41,295,32,1*62
$GPGSV,3,2,09,12,23,303,34,17,47,137,30,19,76,132,33,20,29,239,34,1*65
$GPGSV,3,3,09,22,18,195,26,1*5D
$GPGSV,1,1,03,04,28,064,22,06,64,348,32,11,41,295,26,8*57
$GLGSV,2,1,05,02,45,163,33,15,19,272,29,01,59,069,30,24,54,055,36,1*7A
$GLGSV,2,2,05,17,40,326,38,1*43
$GAGSV,2,1,06,03,23,153,34,05,35,095,29,15,46,298,25,18,67,148,28,7*7D
$GAGSV,2,2,06,27,34,289,27,30,37,224,28,7*78
$GAGSV,2,1,05,05,35,095,25,15,46,298,25,18,67,148,30,30,37,224,25,1*7B
$GAGSV,2,2,05,34,59,035,25,1*4A
$GQGSV,1,1,03,02,36,178,32,03,78,073,31,04,51,152,27,1*57
$GQGSV,1,1,02,02,36,178,27,03,78,073,29,8*61
$GBGSV,4,1,16,60,25,240,37,59,44,159,36,44,77,012,27,40,80,159,32,1*75
$GBGSV,4,2,16,38,61,239,36,34,28,307,32,25,05,291,31,22,67,108,33,1*7C
$GBGSV,4,3,16,21,35,190,32,13,37,232,25,12,55,323,29,10,68,274,32,1*7D
$GBGSV,4,4,16,08,51,234,37,07,75,232,28,03,43,206,32,01,44,152,36,1*73
$GBGSV,3,1,09,19,27,044,22,21,35,190,31,22,67,108,33,25,05,291,29,3*76
$GBGSV,3,2,09,34,28,307,32,35,41,106,28,38,61,239,34,40,80,159,35,3*7E
$GBGSV,3,3,09,44,77,012,30,3*4D
$GBGSV,1,1,02,21,35,190,27,22,67,108,27,5*75
$GNGSA,A,3,04,06,09,11,12,17,19,20,22,,,,0.6,0.4,0.5,1*32
$PSSGR,GSA,A,3,04,06,11,,,,,,,,,,0.6,0.4,0.5,1,8*40
$GNGSA,A,3,66,72,79,81,88,,,,,,,,0.6,0.4,0.5,2*37
$GNGSA,A,3,03,05,09,15,18,27,30,34,36,,,,0.6,0.4,0.5,3*32
$GNGSA,A,3,07,08,10,12,13,19,21,22,25,34,35,38,0.6,0.4,0.5,4*3A
AccInfo:	1748320035783	:	3.7900925	Speed:	33.88
BatteryTemperature:	25.8
#location,042715,37.24534292,127.03903141,9.41,286.1,270525,gps,3.7900925,1.7191739,0.27976802,4.6268272,
$PSSGR,GSA,A,3,219,221,222,234,238,240,244,,,,,,0.6,0.4,0.5,4,5*7B
$GNVTG,286.1,T,295.1,M,18.3,N,33.9,K,A*3C
$GNDTM,W84,,0000.000000,N,00000.000000,E,0.000,W84*41
$GNRMC,042715.78,A,3714.720575,N,12702.341885,E,18.3,286.1,270525,9.0,W,A,V*76
$GNGNS,042715.78,3714.720575,N,12702.341885,E,AAAANN,39,0.4,19.9,23.2,,,V*12
$GNGGA,042715.78,3714.720575,N,12702.341885,E,1,12,0.4,19.9,M,23.2,M,,*4B
$PSMSG,Mag=F,Gyro=UN,bluesky=0*00
AccInfo:	1748320036305	:	3.79	Speed:	33.88
BatteryTemperature:	25.8
#location,042716,37.2453447,127.0390239,9.411391,285.99927,270525,fused,3.79,1.7191739,0.27976802,11.07518,
$GNGSA,A,3,04,06,09,11,12,17,19,20,22,,,,0.6,0.4,0.5,1*32
AccInfo:	1748320037000	:	3.7900925	Speed:	30.64
BatteryTemperature:	25.8
#location,042717,37.24536497,127.03891852,8.51,287.8,270525,gps,3.7900925,6.3821993,1.0121646,4.349626,
$PSSGR,GSA,A,3,04,06,11,,,,,,,,,,0.6,0.4,0.5,1,8*40
$GNGSA,A,3,66,72,79,81,88,,,,,,,,0.6,0.4,0.5,2*37
$GNGSA,A,3,03,05,15,18,27,30,34,36,,,,,0.6,0.4,0.5,3*3B
$PSSGR,GSA,A,3,315,318,330,334,,,,,,,,,0.6,0.4,0.5,3,1*40
$GNGSA,A,3,07,08,10,12,13,19,21,22,25,34,35,38,0.6,0.4,0.5,4*3A
$PSSGR,GSA,A,3,221,222,234,238,240,244,,,,,,,0.6,0.4,0.5,4,5*41
$GNVTG,287.8,T,296.8,M,16.5,N,30.6,K,A*3A
$GNDTM,W84,,0000.000000,N,00000.000000,E,0.000,W84*41
$GNRMC,042717.00,A,3714.721898,N,12702.335111,E,16.5,287.8,270525,9.0,W,A,V*73
$GNGNS,042717.00,3714.721898,N,12702.335111,E,AAAANN,38,0.4,20.0,23.2,,,V*15
$GNGGA,042717.00,3714.721898,N,12702.335111,E,1,12,0.4,20.0,M,23.2,M,,*4D
$PSMSG,Mag=F,Gyro=UN,bluesky=0*00
AccInfo:	1748320037019	:	3.79	Speed:	30.72
BatteryTemperature:	25.8
#location,042717,37.2453643,127.0389248,8.532055,286.9712,270525,fused,3.79,6.3821993,1.0121646,10.06638,
#GnssStatus,68,55,4,1,1.57542003E9,27.0,1,6,1,1.57542003E9,30.5,1,9,1,1.57542003E9,30.8,1,11,1,1.57542003E9,31.5,1,12,1,1.57542003E9,33.5,1,17,1,1.57542003E9,30.0,1,19,1,1.57542003E9,30.2,1,20,1,1.57542003E9,34.1,1,22,1,1.57542003E9,24.9,1,194,4,1.57542003E9,31.4,0,195,4,1.57542003E9,30.9,0,196,4,1.57542003E9,28.3,0,2,3,1.59975002E9,34.2,1,15,3,1.602E9,26.5,1,1,3,1.60256256E9,30.9,0,24,3,1.60312499E9,36.7,1,17,3,1.60424998E9,35.4,1,8,3,1.60537498E9,24.6,1,60,5,1.56109798E9,35.3,1,59,5,1.56109798E9,35.6,1,44,5,1.56109798E9,27.5,1,40,5,1.56109798E9,32.9,1,38,5,1.56109798E9,34.6,1,35,5,1.56109798E9,21.7,1,34,5,1.56109798E9,31.8,1,25,5,1.56109798E9,31.0,1,22,5,1.56109798E9,31.9,1,21,5,1.56109798E9,32.5,1,19,5,1.56109798E9,20.6,0,13,5,1.56109798E9,24.5,1,12,5,1.56109798E9,29.9,1,10,5,1.56109798E9,32.2,1,8,5,1.56109798E9,36.5,1,7,5,1.56109798E9,28.0,1,4,5,1.56109798E9,30.7,0,3,5,1.56109798E9,31.6,0,2,5,1.56109798E9,26.6,0,1,5,1.56109798E9,36.1,0,2,6,1.57542003E9,19.5,0,3,6,1.57542003E9,33.3,1,5,6,1.57542003E9,28.9,1,15,6,1.57542003E9,27.0,1,18,6,1.57542003E9,28.3,1,27,6,1.57542003E9,29.1,1,30,6,1.57542003E9,29.1,1,34,6,1.57542003E9,33.0,1,36,6,1.57542003E9,27.7,1,4,1,1.17645005E9,22.3,1,6,1,1.17645005E9,32.0,1,11,1,1.17645005E9,25.3,1,194,4,1.17645005E9,26.4,0,195,4,1.17645005E9,29.1,0,5,6,1.17645005E9,22.3,0,15,6,1.17645005E9,25.1,1,18,6,1.17645005E9,28.8,1,30,6,1.17645005E9,23.0,1,34,6,1.17645005E9,24.2,1,21,5,1.17645005E9,26.0,1,22,5,1.17645005E9,26.1,1,19,5,1.57542003E9,23.6,1,21,5,1.57542003E9,29.7,1,22,5,1.57542003E9,32.4,1,25,5,1.57542003E9,28.0,1,34,5,1.57542003E9,31.5,1,35,5,1.57542003E9,29.1,1,38,5,1.57542003E9,33.1,1,40,5,1.57542003E9,34.8,1,44,5,1.57542003E9,30.0,1
$GPGSV,3,1,09,04,28,064,27,06,64,348,31,09,41,106,31,11,41,295,32,1*6C
$GPGSV,3,2,09,12,23,303,34,17,47,137,30,19,76,132,30,20,29,239,34,1*66
$GPGSV,3,3,09,22,18,195,25,1*5E
$GPGSV,1,1,03,04,28,064,22,06,64,348,32,11,41,295,25,8*54
$GLGSV,2,1,06,02,45,163,34,15,19,272,27,01,59,069,31,24,54,055,37,1*70
$GLGSV,2,2,06,17,40,326,35,08,13,027,25,1*75
$GAGSV,3,1,09,02,07,179,20,03,23,153,33,05,35,095,29,15,46,298,27,7*71
$GAGSV,3,2,09,18,67,148,28,27,34,289,29,30,37,224,29,34,59,035,33,7*7B
$GAGSV,3,3,09,36,16,076,28,7*43
$GAGSV,2,1,05,05,35,095,22,15,46,298,25,18,67,148,29,30,37,224,23,1*72
$GAGSV,2,2,05,34,59,035,24,1*4B
$GQGSV,1,1,03,02,36,178,31,03,78,073,31,04,51,152,28,1*5B
$GQGSV,1,1,02,02,36,178,26,03,78,073,29,8*60
$GBGSV,5,1,20,60,25,240,35,59,44,159,36,44,77,012,28,40,80,159,33,1*7D
$GBGSV,5,2,20,38,61,239,35,35,41,106,22,34,28,307,32,25,05,291,31,1*77
$GBGSV,5,3,20,22,67,108,32,21,35,190,33,19,27,044,21,13,37,232,25,1*7A
$GBGSV,5,4,20,12,55,323,30,10,68,274,32,08,51,234,37,07,75,232,28,1*79
$GBGSV,5,5,20,04,36,132,31,03,43,206,32,02,26,235,27,01,44,152,36,1*73
$GBGSV,3,1,09,19,27,044,24,21,35,190,30,22,67,108,32,25,05,291,28,3*71
$GBGSV,3,2,09,34,28,307,32,35,41,106,29,38,61,239,33,40,80,159,35,3*78
$GBGSV,3,3,09,44,77,012,30,3*4D
$GBGSV,1,1,02,21,35,190,26,22,67,108,26,5*75
$GNGSA,A,3,04,06,09,11,12,17,19,20,22,,,,0.6,0.4,0.5,1*32
$PSSGR,GSA,A,3,04,06,11,,,,,,,,,,0.6,0.4,0.5,1,8*40
$GNGSA,A,3,66,72,79,81,88,,,,,,,,0.6,0.4,0.5,2*37
$GNGSA,A,3,03,05,15,18,27,30,34,36,,,,,0.6,0.4,0.5,3*3B
$PSSGR,GSA,A,3,305,315,318,330,334,,,,,,,,0.6,0.4,0.5,3,1*76
$GNGSA,A,3,02,04,07,08,10,12,13,19,21,22,25,34,0.6,0.4,0.5,4*31
AccInfo:	1748320038000	:	3.7900925	Speed:	26.93
BatteryTemperature:	25.8
#location,042718,37.24538436,127.03883761,7.48,286.9,270525,gps,3.7900925,6.9134636,0.97264993,3.9581037,
$PSSGR,GSA,A,3,221,222,234,238,240,244,,,,,,,0.6,0.4,0.5,4,5*41
$GNVTG,286.9,T,295.9,M,14.5,N,26.9,K,A*32
$GNDTM,W84,,0000.000000,N,00000.000000,E,0.000,W84*41
$GNRMC,042718.00,A,3714.723062,N,12702.330257,E,14.5,286.9,270525,9.0,W,A,V*75
